[
  { "id": "caracas", "label": "Caracas", "type": "city", "state": "Capital", "lat": 10.4806, "lng": -66.9036 },
  { "id": "chacao", "label": "Caracas — Chacao", "type": "district", "state": "Miranda", "lat": 10.495, "lng": -66.848 },
  { "id": "baruta", "label": "Caracas — Baruta", "type": "district", "state": "Miranda", "lat": 10.433, "lng": -66.876 },
  { "id": "sucre", "label": "Caracas — Sucre", "type": "district", "state": "Miranda", "lat": 10.476, "lng": -66.802 },
  { "id": "el-hatillo", "label": "Caracas — El Hatillo", "type": "district", "state": "Miranda", "lat": 10.424, "lng": -66.808 },
  { "id": "libertador", "label": "Caracas — Libertador", "type": "district", "state": "Capital", "lat": 10.506, "lng": -66.919 },
  { "id": "ccs", "label": "Aeropuerto de Maiquetía (CCS)", "type": "airport", "city": "La Guaira", "lat": 10.6031, "lng": -67.0306 },
  { "id": "valencia", "label": "Valencia", "type": "city", "state": "Carabobo", "lat": 10.1708, "lng": -68.0000 },
  { "id": "maracaibo", "label": "Maracaibo", "type": "city", "state": "Zulia", "lat": 10.654, "lng": -71.638 },
  { "id": "maracay", "label": "Maracay", "type": "city", "state": "Aragua", "lat": 10.246, "lng": -67.595 },
  { "id": "barquisimeto", "label": "Barquisimeto", "type": "city", "state": "Lara", "lat": 10.0678, "lng": -69.3467 },
  { "id": "lecheria", "label": "Lechería", "type": "city", "state": "Anzoátegui", "lat": 10.197, "lng": -64.634 },
  { "id": "porlamar", "label": "Porlamar (Margarita)", "type": "city", "state": "Nueva Esparta", "lat": 10.957, "lng": -63.849 },
  { "id": "merida", "label": "Mérida", "type": "city", "state": "Mérida", "lat": 8.589, "lng": -71.156 },
  { "id": "puerto-la-cruz", "label": "Puerto La Cruz", "type": "city", "state": "Anzoátegui", "lat": 10.213, "lng": -64.632 },
  { "id": "san-cristobal", "label": "San Cristóbal", "type": "city", "state": "Táchira", "lat": 7.766, "lng": -72.225 }
]
